[{"name": "وزارة الصحة والسكان - قطاع الطب العلاجى - الادارة المركزيه للطوارئ والرعاية الحرجة", "lat": 30.0444, "lon": 31.2357}, {"name": "الشركة القابضة للأدوية  - شركة الاسكندرية للأدوية والصناعات الكيماوية", "lat": 31.2001, "lon": 29.9187}, {"name": "الهيئة العامة للمستشفيات والمعاهد التعليمية  - مستشفي الجلاء التعليمي", "lat": 30.0544347, "lon": 31.2374605}, {"name": "الهيئة العامة للمستشفيات والمعاهد التعليمية  - مستشفي بنها التعليمي", "lat": 30.466, "lon": 31.1834}, {"name": "مستشفيات جامعة القاهرة - الادارة العامة للتموين الطبي والصيدليات - كلية الطب", "lat": 30.0298, "lon": 31.2269}, {"name": "الهيئة العامة للمستشفيات والمعاهد التعليمية  - المعهد القومي لامراض السكر والغدد الصماء", "lat": 30.0262515, "lon": 31.2317999}, {"name": "الهيئة العامة للمستشفيات والمعاهد التعليمية  - مستشفي أحمد ماهر والجمهورية التعليمي", "lat": 30.060405567254, "lon": 31.247243677432}, {"name": "الهيئة العامة للتأمين الصحى - مستشفي 6 أكتوبر", "lat": 30.0374677, "lon": 31.2144598}, {"name": "الهيئة العامة للتأمين الصحى - القاهرة", "lat": 30.0641, "lon": 31.2291}, {"name": "مستشفى باب الشعرية الجامعى  - جامعة الازهر", "lat": 30.0543, "lon": 31.2565}, {"name": "المؤسسة العلاجية - مستشفي الاصلاح الإسلامي - الصيدلية الداخلي", "lat": 30.0652964, "lon": 31.243154}, {"name": "المؤسسة العلاجية - مستشفي الاصلاح الإسلامي - المخزن الرئيسي", "lat": 30.0652964, "lon": 31.243154}, {"name": "المؤسسة العلاجية - مستشفي الاصلاح الإسلامي - الصيدلية الخارجي", "lat": 30.0652964, "lon": 31.243154}, {"name": "مستشفيات جامعة عين شمس - اتش اي اس", "lat": 30.06765, "lon": 31.239117}, {"name": "مستشفي فم الخليج - مستشفيات المعهد القومي للاورام  - جامعة القاهرة", "lat": 30.0215, "lon": 31.2294}, {"name": "أمانة المراكز الطبية المتخصصة  - القاهرة الفاطمية", "lat": 30.05165, "lon": 31.26343}, {"name": "مستشفي الحسين الجامعي - جامعة الأزهر - صيدلى أورام", "lat": 30.0487, "lon": 31.2646}, {"name": "مستشفي الحسين الجامعي - جامعة الأزهر", "lat": 30.0487, "lon": 31.2646}, {"name": "الشركة القابضة للأدوية  - شركة تنمية الصناعات الكيماوية ( سيد) - المركز الرئيسي بالطالبية", "lat": 30.0625056, "lon": 31.2133138}, {"name": "أمانة المراكز الطبية المتخصصة  - العجوزه", "lat": 30.0528, "lon": 31.2062}, {"name": "الهيئة العامة للتأمين الصحى - الجيزة", "lat": 30.0385, "lon": 31.2016}, {"name": "الهيئة العامة للمستشفيات والمعاهد التعليمية  - معهد القلب القومي", "lat": 30.0650834, "lon": 31.2094054}, {"name": "جامعة قناة السويس - مركز طبي كلية التجارة", "lat": 29.9668, "lon": 32.5498}, {"name": "المؤسسة العلاجية - مستشفي مبرة مصر القديمة - المخزن الرئيسي", "lat": 30.0134738, "lon": 31.2287207}, {"name": "المؤسسة العلاجية - مستشفي مبرة مصر القديمة - الصيدلية الخارجي", "lat": 30.0134738, "lon": 31.2287207}, {"name": "المؤسسة العلاجية - مستشفي مبرة مصر القديمة - الصيدلية الداخلي", "lat": 30.0134738, "lon": 31.2287207}, {"name": "مستشفي الطلبة - جامعة القاهرة", "lat": 30.0256, "lon": 31.2052}, {"name": "وزارة البحث العلمى - معهد بحوث أمراض العيون", "lat": 30.0155446, "lon": 31.2167415}, {"name": "الهيئة العامة للمستشفيات والمعاهد التعليمية  - معهد الرمد التذكاري", "lat": 30.0154244, "lon": 31.2154001}, {"name": "مديرية الشئون الصحية - الجيزه - إدارة بنوك الدم - بولاق الدكرور العام", "lat": 30.0313889, "lon": 31.1979438}, {"name": "مديرية الشئون الصحية - الجيزه - إدارة  المعامل - م. بولاق الدكرور", "lat": 30.0281346, "lon": 31.1995594}, {"name": "مديرية الشئون الصحية - الجيزه - مستشفي بولاق", "lat": 30.0281346, "lon": 31.1995594}, {"name": "مديرية الشئون الصحية - الجيزه - إدارة سلامة المرضي وجودة - مستشفي بولاق الدكرور العام", "lat": 30.0281346, "lon": 31.1995594}, {"name": "مديرية الشئون الصحية - الجيزه - دارة  المعامل - إدارة شمال الجيزة", "lat": 30.068, "lon": 31.201}, {"name": "مديرية الشئون الصحية - الجيزه - الاداره الصحية - شمال الجيزة", "lat": 30.068, "lon": 31.201}, {"name": "الهيئة العامة للمستشفيات والمعاهد التعليمية  - معهد السمع والكلام", "lat": 30.0815328, "lon": 31.2230652}, {"name": "مستشفى الزهراء الجامعى - كليه طب بنات (القاهره) - جامعة الازهر - صيدلى بمخازن المستشفي", "lat": 30.0322, "lon": 31.2785}, {"name": "الهيئة العامة للمستشفيات والمعاهد التعليمية  - مستشفي الساحل التعليمي", "lat": 30.08393, "lon": 31.2419}, {"name": "وزارة الصحة والسكان - الامانة العامة للصحة النفسية وعلاج الادمان - مستشفي امبابة لعلاج وتأهيل مرضي الادمان", "lat": 30.07625, "lon": 31.20666}, {"name": "أمانة المراكز الطبية المتخصصة  - مستشفى صدر امبابة", "lat": 30.07625, "lon": 31.20666}, {"name": "مديرية الشئون الصحية - الجيزه - إدارة سلامة المرضي وجودة - أ. شمال الجيزة - وحدة مدينة العمال", "lat": 30.0718, "lon": 31.1983}, {"name": "أمانة المراكز الطبية المتخصصة - الشيخ زايد ال نهيان", "lat": 30.0498361, "lon": 31.2879067}, {"name": "مستشفيات جامعة عين شمس - مستشفي الدمرداش (الجراحة)", "lat": 30.0740183, "lon": 31.2781446}, {"name": "الشركة القابضة للأدوية  - شركة القاهرة للأدوية والصناعات الكيماوية", "lat": 30.0913295, "lon": 31.2512335}, {"name": "وزارة التعليم العالي والبحث العلمي - معهد تيودور بلهارس للأبحاث", "lat": 30.09375, "lon": 31.22363}, {"name": "أمانة المراكز الطبية المتخصصة - معهد ناصر", "lat": 30.0965917, "lon": 31.239135}, {"name": "مستشفيات جامعة عين شمس - ادارة التفتيش", "lat": 30.0768, "lon": 31.2844}, {"name": "مستشفيات جامعة عين شمس - العيادات الخارجية", "lat": 30.0768, "lon": 31.2844}, {"name": "مستشفيات جامعة عين شمس - المستشفى التخصصي", "lat": 30.0768, "lon": 31.2844}, {"name": "مستشفيات جامعة عين شمس - بنك الدم", "lat": 30.0768, "lon": 31.2844}, {"name": "جامعة عين شمس - التموين الطبي والصيدليات", "lat": 30.0768, "lon": 31.2844}, {"name": "أمانة المراكز الطبية المتخصصة - جراحات اليوم الواحد بمدينة نصر", "lat": 30.048764437765, "lon": 31.317751148836}, {"name": "جامعة الازهر- الإدارة العامة الطبية - محافظه القاهرة ( الإدارة العامة للشئون الطبية بنين)", "lat": 30.0585049, "lon": 31.3173318}, {"name": "جامعة الازهر - الإدارة العامة الطبية - محافظه الأقصر ( الإدارة الطبية بنات )", "lat": 25.6872, "lon": 32.6396}, {"name": "مستشفى الزهراء الجامعى - كليه طب بنات (القاهره) - جامعة الازهر", "lat": 30.0585049, "lon": 31.3173318}, {"name": "الشركة القابضة للأدوية  - شركة النيل للأدوية", "lat": 30.10361, "lon": 31.29256}, {"name": "الهيئة العامة للتأمين الصحى الشامل - رئاسة الهيئة", "lat": 30.0897772, "lon": 31.3128631}, {"name": "أمانة المراكز الطبية المتخصصة - مستشفى ناصر التخصصى", "lat": 30.124438232512, "lon": 31.256052755346}, {"name": "الهيئة المصرية العامة للمواصفات والجوده EOS - الفرع الرئيسي بالأميرية - القاهرة", "lat": 30.1083, "lon": 31.3009}, {"name": "أمانة المراكز الطبية المتخصصة  - الزيتون التخصصي", "lat": 30.1008525, "lon": 31.312345}, {"name": "أمانة المراكز الطبية المتخصصة - مركز علاج الأورام بميت غمر", "lat": 30.718, "lon": 31.2552}, {"name": "الشركة القابضة للأدوية  - شركة مصر للمستحضرات الطبية", "lat": 30.11372, "lon": 31.30522}, {"name": "الهيئة العامة للمستشفيات والمعاهد التعليمية  - المعهد القومي للكلي والمسالك البولية", "lat": 30.1139477, "lon": 31.3054116}, {"name": "المؤسسة العلاجية - مستشفي مبرة المعادي - الصيدلية الداخلي", "lat": 29.9537077, "lon": 31.2609132}, {"name": "الهيئة العامة للمستشفيات والمعاهد التعليمية  - مستشفي المطرية التعليمي", "lat": 30.1178276, "lon": 31.3020527}, {"name": "المؤسسة العلاجية - مستشفي مبرة المعادى - المخزن الرئيسي", "lat": 30.0891066, "lon": 31.3316251}, {"name": "المؤسسة العلاجية - مستشفي مبرة المعادى - الصيدلية الخارجي", "lat": 30.0891066, "lon": 31.3316251}, {"name": "هيئة الدواء المصرية -الادارة المركزية للتفتيش على المؤسسات الصيدلية - فرع هيئة الدواء بالقاهرة", "lat": 30.142463289164, "lon": 31.245137888555}, {"name": "المؤسسة العلاجية - مستشفي هيليوبوليس - الصيدلية الخارجي", "lat": 30.10638, "lon": 31.33728}, {"name": "المؤسسة العلاجية - مستشفي هيليوبوليس - الصيدلية الداخلي", "lat": 30.10638, "lon": 31.33728}, {"name": "المؤسسة العلاجية - مستشفي هيليوبوليس - المخزن الرئيسي", "lat": 30.10638, "lon": 31.33728}, {"name": "أمانة المراكز الطبية المتخصصة  - الهرم", "lat": 29.9804, "lon": 31.1345}, {"name": "الهيئة العامة للتأمين الصحى - مستشفي مدينة نصر", "lat": 30.0605177, "lon": 31.384323}, {"name": "هيئة الدواء المصرية -الادارة المركزية للتفتيش على المؤسسات الصيدلية - فرع هيئة الدواء بالجيزة", "lat": 29.92377428611, "lon": 31.175373563788}, {"name": "مستشفيات جامعة عين شمس - مستشفي الطب النفسي", "lat": 30.1214629, "lon": 31.3664676}, {"name": "مستشفي الثدى بالتجمع - مستشفيات المعهد القومي للاورام - جامعة القاهرة", "lat": 30.0201, "lon": 31.4055}, {"name": "الشركة القابضة للأدوية  - شركة النصر للكيماويات الدوائية", "lat": 30.13328, "lon": 31.38237}, {"name": "أمانة المراكز الطبية المتخصصة - مستشفى الخانكة التخصصي", "lat": 30.2131657, "lon": 31.3605956}, {"name": "أمانة المراكز الطبية المتخصصة - الشيخ زايد التخصصى", "lat": 30.0315604, "lon": 31.0035812}, {"name": "وزارة الصحة والسكان - الامانة العامة للصحة النفسية وعلاج الادمان - مستشفي الصحة النفسية بالخانكة", "lat": 30.225996107434, "lon": 31.366257034878}, {"name": "أمانة المراكز الطبية المتخصصة  - مستشفي 15 مايو التخصصى", "lat": 29.850815, "lon": 31.366965}, {"name": "وزارة الصحة والسكان - الامانة العامة للصحة النفسية وعلاج الادمان - مستشفي الصحة النفسية بحلوان", "lat": 29.8363503, "lon": 31.3385343}, {"name": "هيئة الاسعاف المصرية - فرع أكتوبر", "lat": 29.963099, "lon": 30.9548988}, {"name": "مديرية الشئون الصحية - القليوبيه - مستشفي حميات طوخ", "lat": 30.3575156, "lon": 31.2046139}, {"name": "مديرية الشئون الصحية - القليوبيه - مستشفي طوخ", "lat": 30.3575156, "lon": 31.2046139}, {"name": "الهيئة العامة للتأمين الصحى الشامل - فرع الاسماعلية", "lat": 30.6043, "lon": 32.2723}, {"name": "أمانة المراكز الطبية المتخصصة  - القاهرة الجديدة التخصصي", "lat": 29.9790255, "lon": 31.4364866}, {"name": "الهيئة العامة للتأمين الصحى - مستشفي العاصمة", "lat": 29.8957992, "lon": 31.6829419}, {"name": "هيئة الدواء المصرية -الادارة المركزية للتفتيش على المؤسسات الصيدلية - فرع هيئة الدواء بالمنوفية", "lat": 30.426898, "lon": 31.0401823}, {"name": "وزارة الصحة والسكان - الامانة العامة للصحة النفسية وعلاج الادمان - مستشفي الصحة النفسية وعلاج الادمان بالعزازى", "lat": 30.6583, "lon": 31.745}, {"name": "وزارة الصحة والسكان - الامانة العامة للصحة النفسية وعلاج الادمان - مستشفي الصحة النفسية بالعباسية", "lat": 30.071, "lon": 31.277}, {"name": "وزارة الصحة والسكان - الامانة العامة للصحة النفسية وعلاج الادمان - مستشفي الصحة النفسية بطنطا", "lat": 30.787, "lon": 30.998}, {"name": "وزارة الصحة والسكان - الامانة العامة للصحة النفسية وعلاج الادمان - مستشفي الصحة النفسية بالدقهلية ( الدميرة )", "lat": 31.04, "lon": 31.47}, {"name": "وزارة الصحة والسكان - الامانة العامة للصحة النفسية وعلاج الادمان - مستشفي الصحة النفسية بمصر الجديدة ( المطار)", "lat": 30.112, "lon": 31.34}, {"name": "وزارة الصحة والسكان - الامانة العامة للصحة النفسية وعلاج الادمان - مستشفي الصحة النفسية وعلاج الادمان ببنها", "lat": 30.4649134, "lon": 31.1848217}, {"name": "وزارة الصحة والسكان - الامانة العامة للصحة النفسية وعلاج الادمان - مستشفي الصحة النفسية ببنى سويف", "lat": 29.0661, "lon": 31.0994}, {"name": "مديرية الشئون الصحية - الجيزه - إدارة سلامة المرضي وجودة - أ. شمال العياط - مكتب صحة العياط", "lat": 29.6166, "lon": 31.2588}, {"name": "هيئة الدواء المصرية -الادارة المركزية للتفتيش على المؤسسات الصيدلية - فرع هيئة الدواء بالقليوبيه", "lat": 30.466, "lon": 31.1834}, {"name": "الهيئة العامة للتأمين الصحى - القليوبية", "lat": 30.466, "lon": 31.1834}, {"name": "مديرية الشئون الصحية - الجيزه - إدارة شمال العياط", "lat": 29.6166, "lon": 31.2588}, {"name": "مديرية الشئون الصحية - الجيزه - إدارة سلامة المرضي وجودة - أ. شمال العياط - الشيخ عتمان", "lat": 29.6166, "lon": 31.2588}, {"name": "مديرية الشئون الصحية - الجيزه - إدارة  المعامل - إدارة شمال العياط", "lat": 29.6166, "lon": 31.2588}, {"name": "مستشفيات جامعة بنها", "lat": 30.470379, "lon": 31.1783358}, {"name": "مستشفى بدر الجامعي - جامعة حلوان", "lat": 30.1451, "lon": 31.7234}, {"name": "جامعة المنوفية - كلية الصيدلة", "lat": 30.537836894139, "lon": 31.137519383919}, {"name": "أمانة المراكز الطبية المتخصصة - مستشفى كفر شكرالتخصصي", "lat": 30.5489951, "lon": 31.2654786}, {"name": "الهيئة العامة للتأمين الصحى - المنوفية", "lat": 30.5501, "lon": 31.0094}, {"name": "جامعة الازهر - الإدارة العامة الطبية - محافظه المنوفية - شبين الكوم ( كلية أصول الدين والدعوة واللغة العربية - بنين)", "lat": 30.5552, "lon": 31.009}, {"name": "جامعة المنوفية - التفتيش الصيدلى بالجامعة", "lat": 30.5555, "lon": 31.0094}, {"name": "جامعة المنوفيه - معهد الاورام", "lat": 30.5555, "lon": 31.0094}, {"name": "جامعة المنوفية - كلية الطب", "lat": 30.5555, "lon": 31.0094}, {"name": "وزارة الصحة والسكان - الامانة العامة للصحة النفسية وعلاج الادمان - مستشفي شبين الكوم للصحة النفسية وعلاج الادمان", "lat": 30.5605975, "lon": 31.0109053}, {"name": "الهيئة العامة للمستشفيات والمعاهد التعليمية  - مستشفي شبين الكوم التعليمي", "lat": 30.5745451, "lon": 31.010797}, {"name": "جامعة المنوفية - معهد الكبد القومي", "lat": 30.5770737, "lon": 31.0140164}, {"name": "المستشفيات الجامعيه بالمنيا", "lat": 28.1099, "lon": 30.7503}, {"name": "مستشفيات جامعة الزقازيق", "lat": 30.5841085, "lon": 31.4873291}, {"name": "مستشفيات جامعة الزقازيق - تحضير وتركيب جرعات الاورام", "lat": 30.5841085, "lon": 31.4873291}, {"name": "جامعة الازهر - الإدارة العامة الطبية - محافظه الشرقية - الزقازيق ( كلية دراسات إسلامية بنات )", "lat": 30.5858068, "lon": 31.5034963}, {"name": "جامعة الازهر - الإدارة العامة الطبية - محافظه المنوفية - السادات ( كلية دراسات إسلامية بنات )", "lat": 30.37616800079, "lon": 30.635518449708}, {"name": "جامعة عين شمس  - كلية الصيدلة", "lat": 30.0768, "lon": 31.2844}, {"name": "مستشفيات جامعة عين شمس - إدارة الجودة", "lat": 30.0768, "lon": 31.2844}, {"name": "مديرية الشئون الصحية - الجيزه - إدارة سلامة المرضي وجودة - أ. اطفيح - الرقة البحرية", "lat": 29.414, "lon": 31.255}, {"name": "أمانة المراكز الطبية المتخصصة - مستشفى العلمين النموذجى", "lat": 30.8228, "lon": 28.9554}, {"name": "وزارة الصحة والسكان - الامانة العامة للصحة النفسية وعلاج الادمان - مستشفي شبراقاص للصحه النفسيه وعلاج الادمان", "lat": 30.7433513, "lon": 31.0689563}, {"name": "الهيئة العامة للتأمين الصحى - الشرقية", "lat": 30.6332775, "lon": 31.7893739}, {"name": "جامعة الازهر - الإدارة العامة الطبية - محافظه الشرقية - القرين ( كلية دراسات عربية وإسلامية بنات )", "lat": 30.671849988707, "lon": 31.733805821368}, {"name": "أمانة المراكز الطبية المتخصصة - مستشفى كبد دماص", "lat": 30.8029077, "lon": 31.3213289}, {"name": "هيئة الدواء المصرية -الادارة المركزية للتفتيش على المؤسسات الصيدلية - فرع هيئة الدواء بالشرقية", "lat": 30.718391360715, "lon": 31.660408224913}, {"name": "أمانة المراكز الطبية المتخصصة  - مركز أورام طنطا", "lat": 30.7844447, "lon": 30.9978803}, {"name": "وزارة الصحة والسكان - الامانة العامة للصحة النفسية وعلاج الادمان - مركز عباس حلمي للطب النفسي وعلاج الادمان", "lat": 30.7915528, "lon": 30.9764627}, {"name": "أمانة المراكز الطبية المتخصصة - مستشفى محلة مرحوم التخصصي", "lat": 30.80207, "lon": 30.95923}, {"name": "وزارة الاوقاف", "lat": 29.3077682, "lon": 30.849816}, {"name": "الهيئة العامة للتأمين الصحى - الفيوم", "lat": 29.3074076, "lon": 30.8399651}, {"name": "الهيئة العامة للتأمين الصحى - الغربية", "lat": 30.8391947, "lon": 31.0016072}, {"name": "مستشفيات جامعة الفيوم", "lat": 29.362768620287, "lon": 30.67997099772}, {"name": "مستشفيات جامعة عين شمس - ادارة التوريدات", "lat": 30.0768, "lon": 31.2844}, {"name": "أمانة المراكز الطبية المتخصصة - السلام التخصصي", "lat": 30.825567, "lon": 30.8178612}, {"name": "جامعة الازهر - الإدارة العامة الطبية - محافظه الغربية - طنطا ( الإدارة الطبية)", "lat": 30.9, "lon": 31.0}, {"name": "هيئة الدواء المصرية -الادارة المركزية للتفتيش على المؤسسات الصيدلية - الادارة العامة لمراقبة الاسواق", "lat": 30.958269516425, "lon": 31.239466449752}, {"name": "هيئة الدواء المصرية -الادارة المركزية للتفتيش على المؤسسات الصيدلية - الادارة العامة للتفتيش على المصانع", "lat": 30.958269516425, "lon": 31.239466449752}, {"name": "هيئة الدواء المصرية -الادارة المركزية للتفتيش على المؤسسات الصيدلية - الادارة العامة للتفتيش على المؤسسات الحكومية", "lat": 30.958269516425, "lon": 31.239466449752}, {"name": "مديرية الشئون الصحية - بنى سويف - اداره الصيدلة بديوان عام المديرية - صيدلى مخازن", "lat": 29.0793263, "lon": 31.1004064}, {"name": "الهيئة العامة للتأمين الصحى - بني سويف", "lat": 29.0729812, "lon": 31.0982562}, {"name": "أمانة المراكز الطبية المتخصصة - مستشفى أهناسيا التخصصي", "lat": 29.0860813, "lon": 30.942939}, {"name": "جامعة الازهر - الإدارة العامة الطبية - محافظه الدقهلية - المنصورة ( كلية أصول دين بنين)", "lat": 31.03637, "lon": 31.38069}, {"name": "مستشفيات جامعة المنصورة - مستشفي الطوارئ", "lat": 31.0401, "lon": 31.3533}, {"name": "جامعة المنصورة - كلية الصيدلة", "lat": 31.0396906, "lon": 31.3611196}, {"name": "جامعة المنصورة - الإدارة العامة للشئون الطبية", "lat": 31.0396906, "lon": 31.3611196}, {"name": "مستشفيات جامعة المنصورة - مركز الاورام", "lat": 31.0425, "lon": 31.3563}, {"name": "مستشفيات جامعة المنصورة - مركز جراحة الجهاز الهضمي", "lat": 31.0425, "lon": 31.3563}, {"name": "الهيئة العامة للتأمين الصحى - مركز الأورام", "lat": 31.0427302, "lon": 31.3627379}, {"name": "أمانة المراكز الطبية المتخصصة  - مستشفى المنصورة الدولى", "lat": 31.040723, "lon": 31.3824668}, {"name": "مستشفيات جامعة المنصورة - مركزامراض الكلى والمسالك البولية", "lat": 31.0436182, "lon": 31.3652927}, {"name": "مستشفيات جامعة أسيوط - مستشفي جراحة المسالك البولية وأمراض الكلى", "lat": 27.1783, "lon": 31.1859}, {"name": "مستشفيات جامعة المنصورة - مستشفي الباطنة التخصصي", "lat": 31.044783, "lon": 31.3586979}, {"name": "مستشفيات جامعة المنصورة - مستشفي المنصورة الجامعي", "lat": 31.0443766, "lon": 31.3636289}, {"name": "مستشفيات جامعة عين شمس - مركز الوراثة", "lat": 30.0768, "lon": 31.2844}, {"name": "أمانة المراكز الطبية المتخصصة - مستشفى بني عبيد التخصصي", "lat": 31.0226219, "lon": 31.6482576}, {"name": "هيئة الدواء المصرية -الادارة المركزية للتفتيش على المؤسسات الصيدلية - فرع هيئة الدواء بالاسماعلية", "lat": 30.593819, "lon": 32.2699473}, {"name": "الهيئة العامة للمستشفيات والمعاهد التعليمية  - مستشفي أورام الاسماعيلية التعليمي", "lat": 30.593819, "lon": 32.2699473}, {"name": "الهيئة العامة للرعايه الصحية - الاسماعيلية", "lat": 30.6043775, "lon": 32.2770825}, {"name": "الهيئة العامة للتأمين الصحى - البحيرة", "lat": 30.7915206, "lon": 30.3465488}, {"name": "أمانة المراكز الطبية المتخصصة - مركز أوارم كفر الشيخ", "lat": 31.1090989, "lon": 30.9440881}, {"name": "أمانة المراكز الطبية المتخصصة  - مستشفى كبد كفر الشيخ", "lat": 31.1090989, "lon": 30.9440881}, {"name": "جامعة الازهر - الإدارة العامة الطبية - محافظه كفر الشيخ ( كلية دراسات إسلامية بنات )", "lat": 31.1090989, "lon": 30.9440881}, {"name": "أمانة المراكز الطبية المتخصصة - مركز طب وجراحة العيون بكفر الشيخ", "lat": 31.1133768, "lon": 30.9426841}, {"name": "هيئة الدواء المصرية -الادارة المركزية للتفتيش على المؤسسات الصيدلية - فرع هيئة الدواء بالدقهلية", "lat": 31.1, "lon": 31.6}, {"name": "مستشفيات جامعة قناه السويس", "lat": 29.9782956, "lon": 32.5051668}, {"name": "هيئة الاسعاف المصرية - فرع السويس", "lat": 29.974498, "lon": 32.537086}, {"name": "الهيئة العامة للتأمين الصحى الشامل - فرع السويس", "lat": 29.974498, "lon": 32.537086}, {"name": "الهيئة العامة للرعايه الصحية - السويس", "lat": 29.974498, "lon": 32.537086}, {"name": "الهيئة المصرية العامة للمواصفات والجوده EOS - فرع الهيئة بالسويس", "lat": 29.965575667304, "lon": 32.559169818266}, {"name": "أمانة المراكز الطبية المتخصصة - مستشفى بني سويف التخصصي", "lat": 28.9248656, "lon": 30.8605784}, {"name": "مديرية الشئون الصحية - بنى سويف - مستشفي سمسطا", "lat": 28.9186391, "lon": 30.8557463}, {"name": "الهيئة العامة للمستشفيات والمعاهد التعليمية  - مستشفي  دمنهور التعليمي", "lat": 31.0377257, "lon": 30.4642335}, {"name": "أمانة المراكز الطبية المتخصصة  - مركز أوارم دمنهور", "lat": 31.0377257, "lon": 30.4642335}, {"name": "الهيئة العامة للتأمين الصحى - الدقهلية", "lat": 31.1380047, "lon": 31.8882499}, {"name": "مستشفيات جامعة عين شمس - مركز الابحاث ( الفيروسات)", "lat": 30.0768, "lon": 31.2844}, {"name": "مديرية الشئون الصحية - بنى سويف", "lat": 28.8382688, "lon": 30.8544768}, {"name": "مديرية الشئون الصحية - بنى سويف - مستشفي الفشن", "lat": 28.822759, "lon": 30.9026484}, {"name": "أمانة المراكز الطبية المتخصصة  - دار الشفا", "lat": 30.9116331, "lon": 30.1782456}, {"name": "مستشفيات جامعة المنصورة - المراكز الطبيه الثلاث", "lat": 31.0409, "lon": 31.3785}, {"name": "وزارة النقل - المركز الطبي لسكك حديد مصر", "lat": 31.1627306, "lon": 31.9340075}, {"name": "الهيئة المصرية العامة للمواصفات والجوده EOS - فرع الهيئة بدمياط", "lat": 31.1941454, "lon": 31.88277}, {"name": "الهيئة المصرية العامة للمواصفات والجوده EOS - فرع الهيئة بسفاجا", "lat": 26.7458, "lon": 33.9351}, {"name": "هيئة الدواء المصرية -الادارة المركزية للتفتيش على المؤسسات الصيدلية - وحده الدعم الفنى", "lat": 28.75259, "lon": 30.87716}, {"name": "الهيئة العامة للمستشفيات والمعاهد التعليمية  - مستشفي كبد المحلة التعليمي", "lat": 30.9706, "lon": 31.1666}, {"name": "أمانة المراكز الطبية المتخصصة - مركز قلب المحلة", "lat": 30.9706, "lon": 31.1666}, {"name": "الهيئة العامة للتأمين الصحى - كفر الشيخ", "lat": 31.3814765, "lon": 30.8513566}, {"name": "مستشفيات جامعة عين شمس - صيدلية القومسيون", "lat": 30.0768, "lon": 31.2844}, {"name": "مديرية الشئون الصحية - المنيا -  إدارة العدوة الصحية - مستشفى العدوة المركزي - جودة", "lat": 28.1099, "lon": 30.7503}, {"name": "مديرية الشئون الصحية - المنيا -  إدارة العدوة الصحية - مستشفي حميات العدوة - جودة", "lat": 28.1099, "lon": 30.7503}, {"name": "مديرية الشئون الصحية - المنيا -  إدارة العدوة الصحية - مستشفي حميات العدوة", "lat": 28.1099, "lon": 30.7503}, {"name": "مديرية الشئون الصحية - المنيا -  إدارة العدوة الصحية - مستشفي حميات العدوة - مكافحة العدوى", "lat": 28.1099, "lon": 30.7503}, {"name": "مديرية الشئون الصحية - المنيا -  إدارة العدوة الصحية - مستشفى العدوة المركزي", "lat": 28.1099, "lon": 30.7503}, {"name": "مديرية الشئون الصحية - المنيا -  إدارة العدوة الصحية - مستشفي حميات العدوة - سلامة وصحة مهنية", "lat": 28.1099, "lon": 30.7503}, {"name": "مديرية الشئون الصحية - المنيا -  إدارة العدوة الصحية - مستشفى العدوة المركزي -مكافحة عدوى", "lat": 28.1099, "lon": 30.7503}, {"name": "هيئة الدواء المصرية -الادارة المركزية للتفتيش على المؤسسات الصيدلية - فرع هيئة الدواء بالسويس", "lat": 29.9668, "lon": 32.5498}, {"name": "هيئة الدواء المصرية -الادارة المركزية للتفتيش على المؤسسات الصيدلية - فرع هيئة الدواء بأسوان", "lat": 24.0889, "lon": 32.8998}, {"name": "هيئة الدواء المصرية -الادارة المركزية للتفتيش على المؤسسات الصيدلية - فرع هيئة الدواء بالاقصر", "lat": 25.6872, "lon": 32.6396}, {"name": "هيئة الدواء المصرية -الادارة المركزية للتفتيش على المؤسسات الصيدلية - فرع هيئة الدواء بقنا", "lat": 26.1551, "lon": 32.716}, {"name": "هيئة الدواء المصرية -الادارة المركزية للتفتيش على المؤسسات الصيدلية - فرع هيئة الدواء بمطروح", "lat": 31.3526, "lon": 27.2372}, {"name": "هيئة الدواء المصرية -الادارة المركزية للتفتيش على المؤسسات الصيدلية - فرع هيئة الدواء بالمنيا", "lat": 28.1099, "lon": 30.7503}, {"name": "هيئة الدواء المصرية -الادارة المركزية للتفتيش على المؤسسات الصيدلية - فرع هيئة الدواء بسوهاج", "lat": 26.5591, "lon": 31.6957}, {"name": "هيئة الدواء المصرية -الادارة المركزية للتفتيش على المؤسسات الصيدلية - فرع هيئة الدواء بالبحيرة", "lat": 31.037, "lon": 30.465}, {"name": "هيئة الدواء المصرية -الادارة المركزية للتفتيش على المؤسسات الصيدلية - فرع هيئة الدواء بأسيوط", "lat": 27.1783, "lon": 31.1859}, {"name": "مديرية الشئون الصحية - المنيا - إدارة مغاغة الصحية - مستشفي مغاغة العام", "lat": 28.1099, "lon": 30.7503}, {"name": "مديرية الشئون الصحية - المنيا - إدارة مغاغة الصحية - مستشفي مغاغة العام - جودة", "lat": 28.1099, "lon": 30.7503}, {"name": "مديرية الشئون الصحية - المنيا - إدارة مغاغة الصحية - مستشفي حميات مغاغة - جودة", "lat": 28.1099, "lon": 30.7503}, {"name": "مديرية الشئون الصحية - المنيا - إدارة مغاغة الصحية - مستشفي حميات مغاغة - سلامة وصحة مهنية", "lat": 28.1099, "lon": 30.7503}, {"name": "مديرية الشئون الصحية - المنيا - إدارة مغاغة الصحية - مستشفي حميات مغاغة - مكافحة عدوى", "lat": 28.1099, "lon": 30.7503}, {"name": "مديرية الشئون الصحية - المنيا - إدارة مغاغة الصحية - مستشفي مغاغة العام - مكافحة عدوى", "lat": 28.1099, "lon": 30.7503}, {"name": "مديرية الشئون الصحية - المنيا - إدارة مغاغة الصحية - مستشفي مغاغة العام - سلامة وصحة مهنية", "lat": 28.1099, "lon": 30.7503}, {"name": "مديرية الشئون الصحية - المنيا - إدارة مغاغة الصحية - مستشفي رمد مغاغة - سلامة وصحة مهنية", "lat": 28.1099, "lon": 30.7503}, {"name": "مديرية الشئون الصحية - المنيا - إدارة مغاغة الصحية - مستشفي رمد مغاغة - مكافحة عدوى", "lat": 28.1099, "lon": 30.7503}, {"name": "مديرية الشئون الصحية - المنيا - إدارة مغاغة الصحية - مستشفي حميات مغاغة", "lat": 28.1099, "lon": 30.7503}, {"name": "مديرية الشئون الصحية - المنيا - إدارة مغاغة الصحية - مستشفي رمد مغاغة - جودة", "lat": 28.1099, "lon": 30.7503}, {"name": "مديرية الشئون الصحية - المنيا - إدارة مغاغة الصحية - مستشفي رمد مغاغة", "lat": 28.1099, "lon": 30.7503}, {"name": "وزارة الموارد المائية والري -الهيئة العامة للسد العالي وخزان أسوان ( مستشفي هيئة السد العالي)", "lat": 24.0889, "lon": 32.8998}, {"name": "وزارة الصحة والسكان - الامانة العامة للصحة النفسية وعلاج الادمان - مستشفي دمياط للصحة النفسية وعلاج الادمان", "lat": 31.4151593, "lon": 31.8115235}, {"name": "أمانة المراكز الطبية المتخصصة -مستشفى قلب دمياط", "lat": 31.4151593, "lon": 31.8115235}, {"name": "أمانة المراكز الطبية المتخصصة - مركز أورام دمياط", "lat": 31.4174312, "lon": 31.8116705}, {"name": "الهيئة العامة للتأمين الصحى - دمياط", "lat": 31.4167427, "lon": 31.8213657}, {"name": "هيئة الاسعاف المصرية - فرع دمياط", "lat": 31.4167427, "lon": 31.8213657}, {"name": "أمانة المراكز الطبية المتخصصة - مستشفى دمياط التخصصي", "lat": 31.4380744, "lon": 31.8012179}, {"name": "وزارة الصحة والسكان - الامانة العامة للصحة النفسية وعلاج الادمان  - مستشفي بورسعيد للصحة النفسية وعلاج الادمان", "lat": 31.2509949, "lon": 32.2621746}, {"name": "الشركة القابضة للأدوية  - الشركة العربية للأدوية (أدكو)", "lat": 31.3073, "lon": 30.2981}, {"name": "أمانة المراكز الطبية المتخصصة  - مستشفى بلطيم التخصصي", "lat": 31.5524544, "lon": 31.0895783}, {"name": "الهيئة العامة للمستشفيات والمعاهد التعليمية  - معهد التغذية القومي", "lat": 31.1187131, "lon": 29.9930611}, {"name": "جامعة قناة السويس - الإدارة العامة للخدمات الطبية", "lat": 29.9668, "lon": 32.5498}, {"name": "جامعة بورسعيد", "lat": 31.24544, "lon": 32.31636}, {"name": "أمانة المراكز الطبية المتخصصة - جراحات اليوم الواحد رأس البر", "lat": 31.485808789826, "lon": 31.806586464973}, {"name": "الهيئة المصرية العامة للمواصفات والجوده EOS - فرع الهيئة ببورسعيد", "lat": 31.26531, "lon": 32.3019}, {"name": "هيئة الدواء المصرية -الادارة المركزية للتفتيش على المؤسسات الصيدلية - فرع هيئة الدواء ببورسعيد", "lat": 31.26531, "lon": 32.3019}, {"name": "مديرية الشئون الصحية - بورسعيد - مجمع المصح البحرى", "lat": 31.26531, "lon": 32.3019}, {"name": "الهيئة العامة للتأمين الصحى الشامل - فرع بورسعيد", "lat": 31.263235, "lon": 32.305505}, {"name": "هيئة الاسعاف المصرية - فرع بورسعيد", "lat": 31.263235, "lon": 32.305505}, {"name": "الهيئة العامة للرعايه الصحية - بورسعيد", "lat": 31.263235, "lon": 32.305505}, {"name": "الهيئة العامة للمستشفيات والمعاهد التعليمية  - مستشفي الاحرار التعليمي", "lat": 31.0129995, "lon": 32.614665}, {"name": "وزارة الصحة والسكان -الادارة المركزية للإدارة الاستراتيجية - الادارة العامة للازمات والكوارث", "lat": 31.2209307, "lon": 29.9869661}, {"name": "وزارة الصحة والسكان -الادارة المركزية للإدارة الاستراتيجية  - الادارة العامة للمتابعة والتقييم", "lat": 31.2209307, "lon": 29.9869661}, {"name": "وزارة الصحة والسكان -الادارة المركزية للإدارة الاستراتيجية - المكتب الفني", "lat": 31.2209307, "lon": 29.9869661}, {"name": "وزارة الصحة والسكان -الادارة المركزية للإدارة الاستراتيجية  - الادارة العامة لاقتصاديات الصحة", "lat": 31.2209307, "lon": 29.9869661}, {"name": "وزارة الصحة والسكان -الادارة المركزية للإدارة الاستراتيجية  - الادارة العامة للتخطيط الصحي", "lat": 31.2209307, "lon": 29.9869661}, {"name": "وزارة الصحة والسكان - الادارة المركزية للامانة العامة للصحة النفسية وعلاج الادمان", "lat": 31.2209307, "lon": 29.9869661}, {"name": "وزارة الصحة والسكان - الامانة العامة للصحة النفسية وعلاج الادمان - مستشفي المعمورة للطب النفسي وعلاج الادمان", "lat": 31.269985, "lon": 30.0246408}, {"name": "أمانة المراكز الطبية المتخصصة  - مركز طب الاسنان التخصصي", "lat": 31.2969458, "lon": 30.0558332}, {"name": "المؤسسة العلاجية - المستشفي القبطى - المخزن الرئيسي", "lat": 31.1924537, "lon": 29.9144793}, {"name": "المؤسسة العلاجية - المستشفي القبطى - الصيدلية الداخلي", "lat": 31.1924537, "lon": 29.9144793}, {"name": "المؤسسة العلاجية - المستشفي القبطى - الصيدلية الخارجي", "lat": 31.1924537, "lon": 29.9144793}, {"name": "الهيئة المصرية العامة للمواصفات والجوده EOS - فرع الهيئة باب 14 ميناء الاسكندرية", "lat": 31.187695801767, "lon": 29.907214015726}, {"name": "أمانة المراكز الطبية المتخصصة  -مستشفى شرق المدينة", "lat": 31.2626586, "lon": 29.9923062}, {"name": "أمانة المراكز الطبية المتخصصة - مستشفى القباري", "lat": 31.17027, "lon": 29.8813582}, {"name": "أمانة المراكز الطبية المتخصصة - مستشفى السلوم التخصصي", "lat": 31.542, "lon": 25.1583}, {"name": "الشركة القابضة للأدوية  - شركة ممفيس للأدوية والصناعات الكيماوية", "lat": 31.1956806, "lon": 29.899766}, {"name": "أمانة المراكز الطبية المتخصصة - مستشفى ملوى", "lat": 27.7333, "lon": 30.8333}, {"name": "أمانة المراكز الطبية المتخصصة - جراحات اليوم الواحد بالمرج", "lat": 31.2013066, "lon": 29.9040942}, {"name": "أمانة المراكز الطبية المتخصصة - جراحات اليوم الواحد بالزاوية", "lat": 31.2013066, "lon": 29.9040942}, {"name": "أمانة المراكز الطبية المتخصصة - جراحات اليوم الواحد بأشمون", "lat": 30.2974, "lon": 30.9781}, {"name": "جامعة الاسكندرية", "lat": 31.2078871, "lon": 29.9093623}, {"name": "الهيئة العامة للتأمين الصحى - الاسكندرية", "lat": 31.1991806, "lon": 29.8951716}, {"name": "أمانة المراكز الطبية المتخصصة  -مستشفى العجمى التخصصي", "lat": 31.1030784, "lon": 29.7673541}, {"name": "أمانة المراكز الطبية المتخصصة  - أورام السلام", "lat": 30.8985205, "lon": 29.5662693}, {"name": "مديرية الشئون الصحية - المنيا - إدارة سمالوط الصحية - مستشفى أورام سمالوط - مكافحة عدوى", "lat": 28.31214, "lon": 30.71007}, {"name": "مديرية الشئون الصحية - المنيا - إدارة سمالوط الصحية - مستشفى أورام سمالوط - جودة", "lat": 28.31214, "lon": 30.71007}, {"name": "مديرية الشئون الصحية - المنيا - إدارة سمالوط الصحية - مستشفى أورام سمالوط - سلامة وصحة مهنية", "lat": 28.31214, "lon": 30.71007}, {"name": "مديرية الشئون الصحية - المنيا - إدارة سمالوط الصحية - مستشفى أورام سمالوط", "lat": 28.31214, "lon": 30.71007}, {"name": "أمانة المراكز الطبية المتخصصة  - مستشفي سمالوط التخصصي", "lat": 28.3104768, "lon": 30.7130346}, {"name": "أمانة المراكز الطبية المتخصصة  - جراحات اليوم الواحد سمالوط", "lat": 28.305099770784, "lon": 30.719815885753}, {"name": "أمانة المراكز الطبية المتخصصة  - مستشفى بئر العبد التخصصي", "lat": 31.01078, "lon": 32.99469}, {"name": "الهيئة العامة للتأمين الصحى - المنيا", "lat": 28.2125404, "lon": 30.9123741}, {"name": "هيئة الاسعاف المصرية - فرع المنيا", "lat": 28.2125404, "lon": 30.9123741}, {"name": "مستشفيات جامعة أسيوط - مستشفي طب الاسنان", "lat": 27.1783, "lon": 31.1859}, {"name": "مديرية الشئون الصحية - المنيا - إدارة ملوى الصحية - مستشفي صدر ملوى - جودة", "lat": 28.0889715, "lon": 30.7561047}, {"name": "مديرية الشئون الصحية - المنيا -  الادارة الصحية بأبو قرقاص - مستشفي الفكرية المركزي - مكافحه عدوى", "lat": 28.0889715, "lon": 30.7561047}, {"name": "أمانة المراكز الطبية المتخصصة  - مركز أورام المنيا", "lat": 28.0889715, "lon": 30.7561047}, {"name": "مديرية الشئون الصحية - المنيا - إدارة مطاى الصحية - مستشفي الصحة الانجابية - مكافحه عدوى", "lat": 28.0889715, "lon": 30.7561047}, {"name": "وزارة الصحة والسكان - الامانة العامة للصحة النفسية وعلاج الادمان - مستشفي المنيا للصحة النفسية وعلاج الادمان", "lat": 28.0889715, "lon": 30.7561047}, {"name": "مديرية الشئون الصحية - المنيا - إدارة مطاى الصحية - مستشفي الصحة الانجابية - جوده", "lat": 28.0889715, "lon": 30.7561047}, {"name": "مديرية الشئون الصحية - المنيا - إدارة ملوى الصحية - مستشفي صدر ملوى - سلامة وصحة مهنية", "lat": 28.0889715, "lon": 30.7561047}, {"name": "مديرية الشئون الصحية - المنيا - إدارة ملوى الصحية - مستشفي صدر ملوى - مكافحة عدوى", "lat": 28.0889715, "lon": 30.7561047}, {"name": "مديرية الشئون الصحية - المنيا - إدارة مطاى الصحية - مستشفي الصحة الانجابية", "lat": 28.0889715, "lon": 30.7561047}, {"name": "مديرية الشئون الصحية - المنيا - إدارة ملوى الصحية - مستشفي صدر ملوى", "lat": 28.0889715, "lon": 30.7561047}, {"name": "أمانة المراكز الطبية المتخصصة  - مستشفى رأس غارب التخصصي", "lat": 28.377116275838, "lon": 32.593004940247}, {"name": "مديرية الشئون الصحية - المنيا -  الادارة الصحية بأبو قرقاص - مستشفي الفكرية المركزي", "lat": 27.9309354, "lon": 30.8212211}, {"name": "مديرية الشئون الصحية - المنيا -  الادارة الصحية بأبو قرقاص - مستشفي الفكرية المركزي - جودة", "lat": 27.9309354, "lon": 30.8212211}, {"name": "مديرية الشئون الصحية - المنيا - إدارة مطاى الصحية - مستشفى مطاى المركزى - مكافحة عدوى", "lat": 27.928710521739, "lon": 30.81939087873}, {"name": "مديرية الشئون الصحية - المنيا - إدارة مطاى الصحية - مستشفى مطاى المركزى - جودة", "lat": 27.928710521739, "lon": 30.81939087873}, {"name": "مديرية الشئون الصحية - المنيا - إدارة مطاى الصحية - مستشفى مطاى المركزى", "lat": 27.928710521739, "lon": 30.81939087873}, {"name": "هيئة الدواء المصرية -الادارة المركزية للتفتيش على المؤسسات الصيدلية - فرع هيئة الدواء بشمال سيناء", "lat": 30.5, "lon": 33.7}, {"name": "مديرية الشئون الصحية - شمال سيناء - إدارة الشيخ زويد الصحية", "lat": 31.2134, "lon": 34.1118}, {"name": "مديرية الشئون الصحية - شمال سيناء - إدارة العريش الصحية", "lat": 31.1316, "lon": 33.7984}, {"name": "مديرية الشئون الصحية - شمال سيناء - مستشفي نخل المركزى", "lat": 29.911014, "lon": 33.7447069}, {"name": "مديرية الشئون الصحية - شمال سيناء", "lat": 30.5903474, "lon": 33.7052032}, {"name": "الهيئة العامة للتأمين الصحى - شمال سيناء", "lat": 30.5903474, "lon": 33.7052032}, {"name": "الهيئة العامة للرعايه الصحية - جنوب سيناء", "lat": 28.2364, "lon": 33.6254}, {"name": "الهيئة العامة للتأمين الصحى الشامل - فرع جنوب سيناء", "lat": 28.2364, "lon": 33.6254}, {"name": "أمانة المراكز الطبية المتخصصة - مستشفى ديرمواس التخصصي", "lat": 27.6434851, "lon": 30.851468}, {"name": "جامعة العريش", "lat": 31.1396102, "lon": 33.7939443}, {"name": "مديرية الشئون الصحية - شمال سيناء - مستشفي العريش العام", "lat": 31.13159, "lon": 33.79844}, {"name": "هيئة الدواء المصرية -الادارة المركزية للتفتيش على المؤسسات الصيدلية - فرع هيئة الدواء بجنوب سيناء", "lat": 28.2364, "lon": 33.6254}, {"name": "مديرية الشئون الصحية - اسيوط - مستشفي ديروط", "lat": 27.1783, "lon": 31.1859}, {"name": "مديرية الشئون الصحية - اسيوط - مستشفي حميات ديروط", "lat": 27.1783, "lon": 31.1859}, {"name": "مستشفيات جامعة أسيوط - مستشفي أم القصور الجامعي", "lat": 27.386944, "lon": 30.8950502}, {"name": "مديرية الشئون الصحية - اسيوط - مستشفي منفلوط", "lat": 27.3119926, "lon": 30.9693261}, {"name": "مديرية الشئون الصحية - الجيزه - مستشفي الواحات البحرية", "lat": 28.403410622174, "lon": 28.712583755071}, {"name": "مديرية الشئون الصحية - الجيزه - إدارة بنوك الدم - الواحات البحرية المركزي", "lat": 28.403410622174, "lon": 28.712583755071}, {"name": "مديرية الشئون الصحية - الجيزه - إدارة سلامة المرضي وجودة - مستشفي الواحات البحرية", "lat": 28.403410622174, "lon": 28.712583755071}, {"name": "مديرية الشئون الصحية - شمال سيناء - مستشفي الشيخ زويد المركزى", "lat": 31.22291, "lon": 34.12356}, {"name": "مستشفيات جامعة أسيوط - مستشفي مدينة أسيوط الجديدة الجامعى", "lat": 27.2764691, "lon": 31.2862745}, {"name": "مستشفى طب الازهر الجامعى - جامعة الازهر بأسيوط", "lat": 27.1941428, "lon": 31.1670249}, {"name": "مستشفيات جامعة المنصورة  - مستشفي الاطفال الجامعي", "lat": 31.0409, "lon": 31.3785}, {"name": "مستشفيات جامعة أسيوط - مستشفى الاطفال الجامعي", "lat": 27.1857785, "lon": 31.1655111}, {"name": "مستشفيات جامعة أسيوط - مستشفي الطلبة", "lat": 27.1856, "lon": 31.1711}, {"name": "جامعة أسيوط - الادارة العامة للشئون الطبية ( قسم التعليم )", "lat": 27.1856, "lon": 31.1711}, {"name": "مستشفيات جامعة أسيوط - المستشفي الرئيسي", "lat": 27.1856, "lon": 31.1711}, {"name": "الهيئة العامة للتأمين الصحى -أسيوط", "lat": 27.1832822, "lon": 31.1853836}, {"name": "مستشفيات جامعة أسيوط - مستشفي الاورام", "lat": 27.1824, "lon": 31.1685}, {"name": "مستشفي الاورام ( معهد جنوب مصر للأورام ) - جامعة اسيوط", "lat": 27.1824, "lon": 31.1685}, {"name": "مستشفي الاورام ( معهد جنوب مصر للأورام ) - جامعة اسيوط - جوده", "lat": 27.1824, "lon": 31.1685}, {"name": "مستشفي الاورام ( معهد جنوب مصر للأورام ) - جامعة اسيوط - مكافحه عدوى", "lat": 27.1824, "lon": 31.1685}, {"name": "الشركة القابضة للأدوية  - شركة تنمية الصناعات الكيماوية ( سيد) - مصنع أسيوط", "lat": 27.1815792, "lon": 31.186725}, {"name": "وزارة الصحة والسكان - الامانة العامة للصحة النفسية وعلاج الادمان - مستشفي أسيوط  للصحة النفسية وعلاج الادمان", "lat": 27.1815792, "lon": 31.186725}, {"name": "مديرية الشئون الصحية - بنى سويف - مستشفي الواسطى", "lat": 29.0661, "lon": 31.0994}, {"name": "أمانة المراكز الطبية المتخصصة  - مستشفى أبوتيج التخصصي", "lat": 27.0446107, "lon": 31.3180185}, {"name": "مديرية الشئون الصحية - سوهاج - مستشفي طما المركزي", "lat": 26.5591, "lon": 31.6957}, {"name": "مديرية الشئون الصحية - سوهاج - مستشفى طهطا العام", "lat": 26.7568552, "lon": 31.5105583}, {"name": "مستشفيات جامعة أسيوط - مستشفي صحة المرأة", "lat": 27.1783, "lon": 31.1859}, {"name": "الهيئة العامة للتأمين الصحى - سوهاج", "lat": 26.5591, "lon": 31.6957}, {"name": "مديرية الشئون الصحية - سوهاج - مستشفي جهينة المركزى", "lat": 26.6624971, "lon": 31.4920566}, {"name": "مديرية الشئون الصحية - سوهاج - مستشفي ساقلتة المركزى", "lat": 26.6581717, "lon": 31.6666992}, {"name": "أمانة المراكز الطبية المتخصصة - مركز أورام سوهاج", "lat": 26.5627543, "lon": 31.6908632}, {"name": "مديرية الشئون الصحية - سوهاج - مستشفي مراغة المركزي", "lat": 26.5627543, "lon": 31.6908632}, {"name": "وزارة الصحة والسكان - الامانة العامة للصحة النفسية وعلاج الادمان - مستشفي سوهاج  للصحة النفسية وعلاج الادمان", "lat": 26.5627543, "lon": 31.6908632}, {"name": "أمانة المراكز الطبية المتخصصة  - الهلال برمسيس", "lat": 27.2477947, "lon": 33.7947187}, {"name": "مديرية الشئون الصحية - البحر الأحمر - مستشفى الغردقة العام", "lat": 27.2606095, "lon": 33.8179128}, {"name": "جامعة الغردقة", "lat": 27.2516654, "lon": 33.8182866}, {"name": "مديرية الشئون الصحية - البحر الأحمر - مستشفى الحميات بالغردقة", "lat": 27.2202759, "lon": 33.8189812}, {"name": "مديرية الشئون الصحية - مرسي مطروح", "lat": 31.3528567, "lon": 27.2395262}, {"name": "جامعة الازهر- الإدارة العامة الطبية - محافظه أسوان ( كلية دراسات إسلامية بنين )", "lat": 24.0889, "lon": 32.8998}, {"name": "جامعة الازهر - الإدارة العامة الطبية - محافظه الاسكندرية ( كلية دراسات إسلامية بنات )", "lat": 31.2001, "lon": 29.9187}, {"name": "مستشفيات جامعة المنصورة - مركز جراحة القلب والصدر و جراحة الأوعية الدموية", "lat": 31.0409, "lon": 31.3785}, {"name": "مستشفيات جامعة أسيوط - مستشفي الاصابات والطوارئ", "lat": 27.1783, "lon": 31.1859}, {"name": "مستشفيات جامعة أسيوط - مستشفي القلب وجراحاتة", "lat": 27.1783, "lon": 31.1859}, {"name": "جامعة الازهر - الإدارة العامة الطبية - محافظه أسيوط ( كلية دراسات إسلامية بنات)", "lat": 27.1783, "lon": 31.1859}, {"name": "مستشفيات جامعة أسيوط - مستشفي الراجحى الجامعى لأمراض الكبد", "lat": 27.1783, "lon": 31.1859}, {"name": "الهيئة العامة للمستشفيات والمعاهد التعليمية  - المعهد القومي للامراض المتوطنة والكبد", "lat": 26.512273493, "lon": 29.87049486}, {"name": "أمانة المراكز الطبية المتخصصة - مستشفى قلب مطروح", "lat": 31.3526, "lon": 27.2372}, {"name": "مديرية الشئون الصحية - سوهاج - مستشفي جرجا العام", "lat": 26.3455067, "lon": 31.888471}, {"name": "مديرية الشئون الصحية - سوهاج - مستشفي دار السلام المركزي", "lat": 26.2790616, "lon": 32.058482}, {"name": "مديرية الشئون الصحية - قنا - مستشفي أبو تشت المركزى", "lat": 26.1260355, "lon": 32.1011357}, {"name": "مديرية الشئون الصحية - قنا - مستشفي قنا الجديدة", "lat": 26.1889636, "lon": 32.7316113}, {"name": "الهيئة العامة للتأمين الصحى - قنا", "lat": 26.2408267, "lon": 32.9084243}, {"name": "مديرية الشئون الصحية - قنا - مستشفي نجع حمادى العام", "lat": 26.0581584, "lon": 32.2287994}, {"name": "مديرية الشئون الصحية - قنا - مستشفي حميات نجع حمادى", "lat": 26.0553458, "lon": 32.2344024}, {"name": "أمانة المراكز الطبية المتخصصة  - مركز أورام قنا", "lat": 26.1600737, "lon": 32.7186156}, {"name": "مستشفيات جامعة جنوب الوادى - قنا", "lat": 26.188229833597, "lon": 32.902259074782}, {"name": "مديرية الشئون الصحية - الوادى الجديد - مستشفي الفرافرة - مكافحة عدوى", "lat": 25.439, "lon": 30.5586}, {"name": "مديرية الشئون الصحية - الوادى الجديد - مستشفي الفرافرة", "lat": 25.439, "lon": 30.5586}, {"name": "وزارة الصحة والسكان - قطاع الطب العلاجي - الإدارة المركزية للشئون العلاجية", "lat": 25.9959214, "lon": 32.7883314}, {"name": "أمانة المراكز الطبية المتخصصة  - مستشفى قفط التخصصي", "lat": 25.9945263, "lon": 32.8090666}, {"name": "الهيئة العامة للتأمين الصحى الشامل - فرع الأقصر", "lat": 25.702096, "lon": 32.647186}, {"name": "الهيئة العامة للرعايه الصحية - الأقصر", "lat": 25.702096, "lon": 32.647186}, {"name": "أمانة المراكز الطبية المتخصصة - مستشفى الخارجة", "lat": 25.4430739, "lon": 30.5491601}, {"name": "مديرية الشئون الصحية - الوادى الجديد - مستشفي الصدر", "lat": 25.441129890068, "lon": 30.560915901604}, {"name": "أمانة المراكز الطبية المتخصصة - مستشفى القصير التخصصي", "lat": 26.1042, "lon": 34.2798}, {"name": "هيئة الدواء المصرية -الادارة المركزية للتفتيش على المؤسسات الصيدلية - فرع هيئة الدواء بالبحر الاحمر", "lat": 26.1100569, "lon": 34.2793693}, {"name": "جامعة الاقصر", "lat": 25.490342762561, "lon": 32.855535423816}, {"name": "أمانة المراكز الطبية المتخصصة  - مستشفى سيدى برانى التخصصي", "lat": 31.61166, "lon": 25.92539}, {"name": "مستشفيات جامعة المنصورة - مركز طب وجراحة العيون", "lat": 31.0409, "lon": 31.3785}, {"name": "أمانة المراكز الطبية المتخصصة - مركز القلب والجهاز الهضمى بسوهاج", "lat": 26.5591, "lon": 31.6957}, {"name": "مستشفيات جامعة عين شمس - مخازن الادوية الرئيسي", "lat": 30.0768, "lon": 31.2844}, {"name": "مديرية الشئون الصحية - الوادى الجديد - مستشفي باريس - مكافحة عدوى", "lat": 25.439, "lon": 30.5586}, {"name": "مديرية الشئون الصحية - الوادى الجديد - مستشفي باريس", "lat": 25.439, "lon": 30.5586}, {"name": "مديرية الشئون الصحية - الوادى الجديد - أمراض مشتركة", "lat": 25.439, "lon": 30.5586}, {"name": "مديرية الشئون الصحية - الوادى الجديد - إدارة بلاط", "lat": 25.439, "lon": 30.5586}, {"name": "مديرية الشئون الصحية - الوادى الجديد - إدارة الخارجة -جودة", "lat": 25.439, "lon": 30.5586}, {"name": "مديرية الشئون الصحية - الوادى الجديد - إدارة الداخلة", "lat": 25.439, "lon": 30.5586}, {"name": "مديرية الشئون الصحية - الوادى الجديد - إدارة الخارجة", "lat": 25.439, "lon": 30.5586}, {"name": "مديرية الشئون الصحية - الوادى الجديد - معمل الرصد البيئي", "lat": 25.439, "lon": 30.5586}, {"name": "مديرية الشئون الصحية - الوادى الجديد - سلسلة التبريد (موزعين على الادارات بالمحافظة)", "lat": 25.439, "lon": 30.5586}, {"name": "مديرية الشئون الصحية - الوادى الجديد - إدارة الصيدلة", "lat": 25.439, "lon": 30.5586}, {"name": "مديرية الشئون الصحية - الوادى الجديد - إدارة باريس - مكافحة عدوى", "lat": 25.439, "lon": 30.5586}, {"name": "مديرية الشئون الصحية - الوادى الجديد - إدارة النفايات", "lat": 25.439, "lon": 30.5586}, {"name": "مديرية الشئون الصحية - الوادى الجديد - إدارة الفرافرة - جودة", "lat": 25.439, "lon": 30.5586}, {"name": "مديرية الشئون الصحية - الوادى الجديد - إدارة باريس - جوده", "lat": 25.439, "lon": 30.5586}, {"name": "مديرية الشئون الصحية - الوادى الجديد - إدارة المعامل", "lat": 25.439, "lon": 30.5586}, {"name": "مديرية الشئون الصحية - الوادى الجديد - إدارة المستشفيات", "lat": 25.439, "lon": 30.5586}, {"name": "مديرية الشئون الصحية - الوادى الجديد - إدارة القوافل ( مخازن)", "lat": 25.439, "lon": 30.5586}, {"name": "مديرية الشئون الصحية - الوادى الجديد - إدارة الفرافرة - مكافحة عدوى", "lat": 25.439, "lon": 30.5586}, {"name": "مديرية الشئون الصحية - الوادى الجديد - إدارة الفرافرة", "lat": 25.439, "lon": 30.5586}, {"name": "مديرية الشئون الصحية - الوادى الجديد - إدارة العلاج الحر", "lat": 25.439, "lon": 30.5586}, {"name": "مديرية الشئون الصحية - الوادى الجديد - مستشفي الحميات", "lat": 25.439, "lon": 30.5586}, {"name": "مديرية الشئون الصحية - الوادى الجديد - إدارة السلامة والصحة المهنية", "lat": 25.439, "lon": 30.5586}, {"name": "مديرية الشئون الصحية - الوادى الجديد - إدارة باريس", "lat": 25.439, "lon": 30.5586}, {"name": "مديرية الشئون الصحية - الوادى الجديد - إدارة الخارجة - مكافحة عدوى", "lat": 25.439, "lon": 30.5586}, {"name": "مديرية الشئون الصحية - البحر الأحمر - إدارة سفاجا الصحية", "lat": 26.7458, "lon": 33.9351}, {"name": "مديرية الشئون الصحية - البحر الأحمر - إدارة مرسي علم الصحية", "lat": 25.0676, "lon": 34.879}, {"name": "مديرية الشئون الصحية - البحر الأحمر - إدارة راس غارب الصحية", "lat": 28.3596, "lon": 33.0776}, {"name": "مديرية الشئون الصحية - البحر الأحمر - إدارة الغردقة الصحية", "lat": 27.2579, "lon": 33.8116}, {"name": "مديرية الشئون الصحية - البحر الأحمر - إدارة القصير الصحية", "lat": 26.1042, "lon": 34.2798}, {"name": "أمانة المراكز الطبية المتخصصة  - جراجات اليوم الواحد بمرسي علم", "lat": 25.0693441, "lon": 34.894344}, {"name": "إدارات تابعة لمديرية الشئون الصحية - البحر الأحمر", "lat": 24.6601831, "lon": 34.1399929}, {"name": "الهيئة العامة للتأمين الصحى - البحر الاحمر", "lat": 24.6601831, "lon": 34.1399929}, {"name": "الهيئة العامة للرعايه الصحية - أسوان", "lat": 24.091071, "lon": 32.897306}, {"name": "هيئة الاسعاف المصرية - فرع أسوان", "lat": 24.091071, "lon": 32.897306}, {"name": "الهيئة العامة للتأمين الصحى الشامل - فرع أسوان", "lat": 24.091071, "lon": 32.897306}, {"name": "وزارة الصحة والسكان - الامانة العامة للصحة النفسية وعلاج الادمان - مستشفي أسوان للصحة النفسية وعلاج الادمان", "lat": 24.0884049, "lon": 32.8989346}, {"name": "جامعة أسوان", "lat": 24.0884049, "lon": 32.8989346}, {"name": "مستشفيات جامعة أسيوط - مستشفي الامراض النفسية والعصبية وجراحة المخ والاعصاب", "lat": 27.1783, "lon": 31.1859}, {"name": "هيئة الاسعاف المصرية - فرع الوادى الجديد", "lat": 25.439, "lon": 30.5586}, {"name": "الهيئة العامة للتأمين الصحى - الوادى الجديد", "lat": 25.439, "lon": 30.5586}, {"name": "مديرية الشئون الصحية - البحر الأحمر - الشلاتين", "lat": 23.1340088, "lon": 35.5911959}]